{
  "type": "FeatureCollection",
  "features": [
    {
      "type": "Feature",
      "properties": {
        "name": "Aosta",
        "code": "AO",
        "region": "Valle d'Aosta"
      },
      "geometry": { "type": "Point", "coordinates": [7.3186, 45.7347] }
    },
    {
      "type": "Feature",
      "properties": { "name": "Torino", "code": "TO", "region": "Piemonte" },
      "geometry": { "type": "Point", "coordinates": [7.6869, 45.0703] }
    },
    {
      "type": "Feature",
      "properties": { "name": "Milano", "code": "MI", "region": "Lombardia" },
      "geometry": { "type": "Point", "coordinates": [9.1895, 45.4642] }
    },
    {
      "type": "Feature",
      "properties": {
        "name": "Trento",
        "code": "TN",
        "region": "Trentino-Alto Adige"
      },
      "geometry": { "type": "Point", "coordinates": [11.1216, 46.0748] }
    },
    {
      "type": "Feature",
      "properties": { "name": "Venezia", "code": "VE", "region": "Veneto" },
      "geometry": { "type": "Point", "coordinates": [12.3269, 45.4408] }
    },
    {
      "type": "Feature",
      "properties": {
        "name": "Trieste",
        "code": "TS",
        "region": "Friuli-Venezia Giulia"
      },
      "geometry": { "type": "Point", "coordinates": [13.7811, 45.6527] }
    },
    {
      "type": "Feature",
      "properties": {
        "name": "Bologna",
        "code": "BO",
        "region": "Emilia-Romagna"
      },
      "geometry": { "type": "Point", "coordinates": [11.3426, 44.4938] }
    },
    {
      "type": "Feature",
      "properties": { "name": "Firenze", "code": "FI", "region": "Toscana" },
      "geometry": { "type": "Point", "coordinates": [11.2558, 43.7696] }
    },
    {
      "type": "Feature",
      "properties": { "name": "Ancona", "code": "AN", "region": "Marche" },
      "geometry": { "type": "Point", "coordinates": [13.5009, 43.6158] }
    },
    {
      "type": "Feature",
      "properties": { "name": "Roma", "code": "RM", "region": "Lazio" },
      "geometry": { "type": "Point", "coordinates": [12.4964, 41.9028] }
    },
    {
      "type": "Feature",
      "properties": { "name": "Napoli", "code": "NA", "region": "Campania" },
      "geometry": { "type": "Point", "coordinates": [14.2681, 40.8518] }
    },
    {
      "type": "Feature",
      "properties": { "name": "Bari", "code": "BA", "region": "Puglia" },
      "geometry": { "type": "Point", "coordinates": [16.8724, 41.1239] }
    },
    {
      "type": "Feature",
      "properties": { "name": "Potenza", "code": "PZ", "region": "Basilicata" },
      "geometry": { "type": "Point", "coordinates": [15.7994, 40.6333] }
    },
    {
      "type": "Feature",
      "properties": { "name": "Catanzaro", "code": "CZ", "region": "Calabria" },
      "geometry": { "type": "Point", "coordinates": [16.5887, 38.8947] }
    },
    {
      "type": "Feature",
      "properties": { "name": "Palermo", "code": "PA", "region": "Sicilia" },
      "geometry": { "type": "Point", "coordinates": [13.3613, 38.1157] }
    },
    {
      "type": "Feature",
      "properties": { "name": "Cagliari", "code": "CA", "region": "Sardegna" },
      "geometry": { "type": "Point", "coordinates": [9.1277, 39.2237] }
    },
    {
      "type": "Feature",
      "properties": { "name": "Campobasso", "code": "CB", "region": "Molise" },
      "geometry": { "type": "Point", "coordinates": [14.66, 41.56] }
    },
    {
      "type": "Feature",
      "properties": { "name": "Genova", "code": "GE", "region": "Liguria" },
      "geometry": { "type": "Point", "coordinates": [8.9463, 44.4056] }
    },
    {
      "type": "Feature",
      "properties": { "name": "Perugia", "code": "PG", "region": "Umbria" },
      "geometry": { "type": "Point", "coordinates": [12.3895, 43.1065] }
    },
    {
      "type": "Feature",
      "properties": { "name": "L'Aquila", "code": "AQ", "region": "Abruzzo" },
      "geometry": { "type": "Point", "coordinates": [13.3995, 42.3498] }
    }
  ]
}
